[{"id":2535814193,"name":"Life Pharmacy Donna Kerr","address":"48 Windsor Street","city":"Invercargill","latitude":-46.410996,"longitude":168.348285},{"id":2535814092,"name":"Unichem 104 Queen St Pharmacy","address":"104 Queen Street","city":"Auckland","latitude":-36.846768923912876,"longitude":174.7660778390299},{"id":2535814148,"name":"Unichem 218 PPonsonby Pharmacy","address":"218 Ponsonby Road","city":"Auckland","latitude":-36.852886,"longitude":174.744988},{"id":2535814111,"name":"Unichem Adamsons Pharmacy","address":"52 King Street","city":"Whakatane","latitude":-37.9609997,"longitude":176.9819936},{"id":2594855685,"name":"Unichem Airport Pharmacy","address":"Shop 4, Airport Shopping Centre, 400 George Bolt Memorial Dr","city":"Manukau","latitude":-36.996196,"longitude":174.788175},{"id":2535814099,"name":"Unichem Albany Metro Pharmacy","address":"139-163 Don McKinnon Drive","city":"Auckland","latitude":-36.7299737,"longitude":174.7066474},{"id":2535814284,"name":"Unichem Alexandra Medical Pharmacy","address":"Currently operating from Unichem Alexandra Pharmacy, 4-6 Centennial Ave","city":"Alexandra","latitude":-45.2530261,"longitude":169.3946808},{"id":2535814283,"name":"Unichem Alexandra Pharmacy","address":"4-6 Centennial Ave","city":"Alexandra","latitude":-45.2556751,"longitude":169.3925594},{"id":2535814112,"name":"Unichem All Seasons Pharmacy","address":"288 Te Atatu Road","city":"Auckland","latitude":-36.8625893,"longitude":174.6484123},{"id":2535814288,"name":"Unichem Apollo Pharmacy","address":"119 Apollo Drive","city":"Auckland","latitude":-36.7355378,"longitude":174.7273323},{"id":2535814113,"name":"Unichem Arrowtown Pharmacy","address":"20 Buckingham Street","city":"Arrowtown","latitude":-44.9384498,"longitude":168.8312393},{"id":2535814114,"name":"Unichem Ascot Pharmacy","address":"706 Tay Street","city":"Invercargill","latitude":-46.40592,"longitude":168.3925772},{"id":2535814178,"name":"Unichem Aviemore Pharmacy","address":"5 Aviemore Drive","city":"Auckland","latitude":-36.89963973918263,"longitude":174.90519795952457},{"id":2535814082,"name":"Unichem Awapuni Pharmacy","address":"96 College Street","city":"Palmerston North","latitude":-40.37312287543891,"longitude":175.59185978888547},{"id":2535814300,"name":"Unichem Bairds Pharmacy","address":"Unit 2, 3 Watford Street, Otara, Auckland 2023","city":"Auckland","latitude":-36.9607199,"longitude":174.875114},{"id":2535814179,"name":"Unichem Barrons Pharmacy","address":"66 Seddon Street","city":"Waihi","latitude":-37.39107,"longitude":175.8415108},{"id":2535814289,"name":"Unichem Beachlands Pharmacy","address":"43 Wakelin Road","city":"Auckland","latitude":-36.8820007,"longitude":174.9967435},{"id":2999274837,"name":"Unichem Bealey Ave Pharmacy","address":"1\/212 Bealey Ave","city":"Christchurch","latitude":-43.52056,"longitude":172.62549},{"id":2535814180,"name":"Unichem Beerescourt Pharmacy","address":"1365 Victoria Street","city":"Hamilton","latitude":-37.7699425679969,"longitude":175.2634967177355},{"id":2535814181,"name":"Unichem Belfast Pharmacy","address":"Unit 8, 812 Main North Road","city":"Christchurch","latitude":-43.444853875067956,"longitude":172.63338721971286},{"id":2999274759,"name":"Unichem Bell Block Pharmacy","address":"5 Bell Court","city":"New Plymouth","latitude":-39.03566,"longitude":174.14244},{"id":2535814182,"name":"Unichem Birkenhead Pharmacy","address":"Shop 28, Highbury Shopping Centre, Corner Highbury Bypass & Birkenhead Avenue","city":"Auckland","latitude":-36.81106907552365,"longitude":174.72478425263978},{"id":2535814183,"name":"Unichem Bishopdale Pharmacy","address":"37 Bishopdale Court","city":"Christchurch","latitude":-43.4887836,"longitude":172.5873726},{"id":2535814323,"name":"Unichem Botany Junction Pharmacy","address":"110 Michael Jones Drive","city":"Auckland","latitude":-36.9650376,"longitude":174.9034228},{"id":2535814166,"name":"Unichem Botany Pharmacy","address":"2 Market Square, Botany Town Centre, Auckland 2013","city":"Auckland","latitude":-36.934447,"longitude":174.9121307},{"id":2535814184,"name":"Unichem Bramwells Pharmacy","address":"232 Gladstone Road","city":"Gisborne","latitude":-38.6643409,"longitude":178.0228564},{"id":2535814185,"name":"Unichem Brighton Village Pharmacy","address":"183 Shaw Ave","city":"Christchurch","latitude":-43.507237,"longitude":172.726739},{"id":2535814186,"name":"Unichem Broadway Pharmacy","address":"197 Broadway","city":"Auckland","latitude":-36.8690666,"longitude":174.7776929},{"id":2535814116,"name":"Unichem Brookfield Pharmacy","address":"85 Bellevue Rd","city":"Tauranga","latitude":-37.69011138203765,"longitude":176.13530579685062},{"id":2535814292,"name":"Unichem Brooklyn Pharmacy","address":"67 Cleveland Street","city":"Wellington","latitude":-41.3053938,"longitude":174.763798},{"id":2984419117,"name":"Unichem Browns Bay Pharmacy","address":"66 Clyde Road, Browns Bay, Auckland 0630","city":"Auckland","latitude":-36.71463501,"longitude":174.7480866},{"id":2535814302,"name":"Unichem Browns Rd Pharmacy","address":"235 Browns Road","city":"Auckland","latitude":-37.0182818,"longitude":174.8634825},{"id":2989282731,"name":"Unichem Buchanans Kiripaka Pharmacy","address":"177 Kiripaka Road","city":"Whangarei","latitude":-35.686457,"longitude":174.326796},{"id":3059168541,"name":"Unichem Buchanans Mansfield Pharmacy ","address":"7 Mansfield Terrace, Tikipunga, Whangarei 0112","city":"Whangarei","latitude":-35.720086,"longitude":174.319905},{"id":2535814117,"name":"Unichem Buchanans Pharmacy","address":"Paramount Plaza, Paramount Parade","city":"Whangarei","latitude":-35.68333543305127,"longitude":174.32097459430383},{"id":2791323991,"name":"Unichem Burwood Hospital Pharmacy","address":"225 Mairehau Road, Burswood","city":"Christchurch","latitude":-43.479685,"longitude":172.680857},{"id":2535814187,"name":"Unichem Bush Inn Pharmacy","address":"Bush Inn Shopping Centre, 364 Riccarton Road","city":"Christchurch","latitude":-43.53081929762145,"longitude":172.57561877315516},{"id":2535814318,"name":"Unichem Cambridge Medical Pharmacy","address":"48 Alpha Street","city":"Cambridge","latitude":-37.8936579,"longitude":175.4657879},{"id":2535814118,"name":"Unichem Cambridge Pharmacy","address":"52 Victoria Street","city":"Cambridge","latitude":-37.8942384407659,"longitude":175.4696757693564},{"id":2594855681,"name":"Unichem Campus Pharmacy","address":"Level 1, University of Auckland Student Commons Bldg, 9 Symonds St","city":"Auckland","latitude":-36.852031,"longitude":174.769908},{"id":2973115657,"name":"Unichem Cashel Pharmacy ","address":"3\/111 Cashel St","city":"Christchurch","latitude":-43.532753,"longitude":172.635864},{"id":2535814188,"name":"Unichem Central Pharmacy Mosgiel","address":"130 Gordon Road","city":"Mosgiel","latitude":-45.8750481,"longitude":170.3479676},{"id":2594855796,"name":"Unichem Central Pharmacy Rotorua","address":"1181 Amohia St","city":"Rotorua","latitude":-38.135501,"longitude":176.248373},{"id":2535814104,"name":"Unichem Centre City Pharmacy","address":"133 Great King Street","city":"Dunedin","latitude":-45.87090598473548,"longitude":170.507246538623},{"id":2535814305,"name":"Unichem Chadwick Pharmacy","address":"120 Chadwick Road","city":"Tauranga","latitude":-37.7280481,"longitude":176.1357911},{"id":2535814189,"name":"Unichem Chemist Shop","address":"27 Linton Street","city":"Palmerston North","latitude":-40.35965687356792,"longitude":175.61108080555732},{"id":2535814190,"name":"Unichem Cherrywood Pharmacy","address":"52 - 54 Cherrywood Drive","city":"Tauranga","latitude":-37.66832914668106,"longitude":176.14004205344236},{"id":2535814140,"name":"Unichem Corner Pharmacy Milford","address":"138 Kitchener Road","city":"Auckland","latitude":-36.773138365965075,"longitude":174.76654099341238},{"id":2535814324,"name":"Unichem Coromandel Pharmacy","address":"89 Kapanga Road","city":"Coromandel","latitude":-36.7594039,"longitude":175.4977095},{"id":2535814308,"name":"Unichem Coxs 7 Day Pharmacy","address":"Cnr Line Rd and Mayfair Place","city":"Auckland","latitude":-36.879084,"longitude":174.856153},{"id":2535814307,"name":"Unichem Coxs Pharmacy","address":"Cnr Line Rd and Mayfair Place","city":"Auckland","latitude":-36.879084,"longitude":174.856153},{"id":2737895000,"name":"Unichem Crisps Pharmacy ","address":"283 Wairakei Road, 8053, Christchurch","city":"Christchurch","latitude":-43.49965,"longitude":172.585886},{"id":2535814097,"name":"Unichem Cuba Mall Pharmacy","address":"122 Cuba Mall","city":"Wellington","latitude":-41.2929482,"longitude":174.7758982},{"id":2535814310,"name":"Unichem Dannemora Pharmacy","address":"1 Redcastle Drive","city":"Auckland","latitude":-36.9453619,"longitude":174.907074},{"id":2535814076,"name":"Unichem Davies Corner Pharmacy","address":"29 Hukanui Road","city":"Hamilton","latitude":-37.7618122886772,"longitude":175.28715215886075},{"id":2535814309,"name":"Unichem Dawson Road Pharmacy","address":"124a Dawson Road","city":"Auckland","latitude":-36.9769806,"longitude":174.8961312},{"id":2594855676,"name":"Unichem Dennis Hanna Pharmacy","address":"575 Glenfield Rd","city":"Auckland","latitude":-36.770294,"longitude":174.722263},{"id":2791323979,"name":"Unichem Dinsdale Pharmacy","address":"27C Whatawhata Road","city":"Hamilton","latitude":-37.795266,"longitude":175.246681},{"id":3062265415,"name":"Unichem Eastern Pharmacy","address":"338 Pages Road, Aranui, Christchurch 8061","city":"Christchurch","latitude":-43.51751,"longitude":172.70235},{"id":2535814196,"name":"Unichem Eastgate Pharmacy","address":"Eastgate Shopping Centre, 6 Buckleys Road","city":"Christchurch","latitude":-43.5320036,"longitude":172.67541570000003},{"id":2535814120,"name":"Unichem Eden Quarter Pharmacy","address":"296a Dominion Road","city":"Auckland","latitude":-36.877972086008405,"longitude":174.7512624927292},{"id":2791323982,"name":"Unichem Ellerslie Pharmacy","address":"125 Main Highway","city":"Auckland","latitude":-36.898132,"longitude":174.80968},{"id":2535814121,"name":"Unichem Elmwood Pharmacy","address":"3 Normans Road","city":"Christchurch","latitude":-43.50974979999999,"longitude":172.6066399},{"id":2594319545,"name":"Unichem Excelsa Pharmacy","address":"5 Golden Sands Dr","city":"Tauranga","latitude":-37.718884,"longitude":176.341922},{"id":2594855797,"name":"Unichem Fairy Springs Pharmacy","address":"Shop 10, 100 Fairy Springs Rd","city":"Rotorua","latitude":-38.115536,"longitude":176.22585},{"id":2535814122,"name":"Unichem Family Healthcare Pharmacy","address":"4\/627 Mt Wellington Highway","city":"Auckland","latitude":-36.929596015045405,"longitude":174.8419532410004},{"id":2535814296,"name":"Unichem Family Pharmacy Albany","address":"368 Albany Highway","city":"Auckland","latitude":-36.743011,"longitude":174.692466},{"id":2535814325,"name":"Unichem Faulkners Pharmacy","address":"398 Cameron Road","city":"Tauranga","latitude":-37.6936631,"longitude":176.1628506},{"id":2535814197,"name":"Unichem Fenwicks Pharmacy","address":"129 Williams Street","city":"Christchurch","latitude":-43.383086,"longitude":172.6567624},{"id":3048512779,"name":"Unichem Ferrymead Pharmacy","address":"Shop 11, 2 Waterman Place, Ferrymead, Christchurch 8023","city":"Christchurch","latitude":-43.55618,"longitude":172.69816},{"id":3030545855,"name":"Unichem Fifteenth Avenue Pharmacy","address":"Unit 4, 51","city":"Tauranga","latitude":-37.7094,"longitude":176.16351},{"id":2535814319,"name":"Unichem Fifth Avenue Pharmacy","address":"40 Fifth Avenue","city":"Tauranga","latitude":-37.6927782,"longitude":176.1639196},{"id":2535814198,"name":"Unichem Flagstaff Pharmacy","address":"1158 River Road","city":"Hamilton","latitude":-37.738046,"longitude":175.253073},{"id":2973115672,"name":"Unichem Forte Pharmacy","address":"132 Peterborough Street","city":"Christchurch","latitude":-43.525759,"longitude":172.637537},{"id":2594855690,"name":"Unichem Fred Thomas Pharmacy","address":"2 Fred Thomas Dr","city":"Auckland","latitude":-36.791203,"longitude":174.763661},{"id":3040161104,"name":"Unichem Gateway Pharmacy","address":"26\/108 Great South Road, Takanini, Auckland 2112","city":"Auckland","latitude":-37.0396,"longitude":174.91476},{"id":3064828797,"name":"Unichem Glendene Pharmacy","address":"1A\/4343 Great North Road","city":"Auckalnd","latitude":-36.88681,"longitude":174.644522},{"id":2535814167,"name":"Unichem Glendowie Pharmacy","address":"95 Ashby Avenue","city":"Auckland","latitude":-36.8693116,"longitude":174.8595156},{"id":2984421153,"name":"Unichem Glenview Medical Pharmacy","address":"1 Urlich Ave, Glenview, Hamilton 3206","city":"Hamilton","latitude":-37.81686,"longitude":175.283002},{"id":2535814199,"name":"Unichem Glenview Pharmacy","address":"Urlich Shopping Centre, 143 Ohaupo Road","city":"Hamilton","latitude":-37.81719781716026,"longitude":175.28267637301633},{"id":2535814124,"name":"Unichem Golf Road Pharmacy","address":"174 Golf Road","city":"Auckland","latitude":-36.9265057,"longitude":174.6702032},{"id":2535814200,"name":"Unichem Graeme Smith Pharmacy","address":"Unit 1, 215 High Street","city":"Christchurch","latitude":-43.30351902025379,"longitude":172.5936068970201},{"id":2535814201,"name":"Unichem Grays Pharmacy","address":"62 Clyde Street","city":"Balclutha","latitude":-46.2382663,"longitude":169.7382667},{"id":2594319428,"name":"Unichem Great Lake Pharmacy","address":"109 Tongariro St","city":"Taupo","latitude":-38.685398,"longitude":176.07042},{"id":2535814168,"name":"Unichem Greenhithe Pharmacy","address":"6-8 Greenhithe Road","city":"Auckland","latitude":-36.77580349424657,"longitude":174.669768040024},{"id":2535814313,"name":"Unichem Greenlane Pharmacy","address":"225 Great South Road","city":"Auckland","latitude":-36.8916055,"longitude":174.7949945},{"id":2535814084,"name":"Unichem Greenmeadows Pharmacy","address":"522 Kennedy Road","city":"Napier","latitude":-39.52321408674277,"longitude":176.86866406197123},{"id":2535814125,"name":"Unichem Greerton Pharmacy","address":"221 Chadwick Road","city":"Tauranga","latitude":-37.726388416098594,"longitude":176.13341771518947},{"id":2535814126,"name":"Unichem Grey Lynn Pharmacy","address":"580 Great North Road","city":"Auckland","latitude":-36.8654178248171,"longitude":174.7374742543883},{"id":2535814202,"name":"Unichem Grey Street Pharmacy","address":"354 Grey Street","city":"Hamilton","latitude":-37.79341011329197,"longitude":175.29360226353788},{"id":2535814127,"name":"Unichem Hamilton East Pharmacy","address":"14 Beale Street","city":"Hamilton","latitude":-37.790522646306016,"longitude":175.2918397588685},{"id":3064728629,"name":"Unichem Hamilton Pharmacy","address":"Cnr Anglesea & Thackeray St, Hamilton, Waikato 3204","city":"Hamilton","latitude":-37.79149,"longitude":175.28279},{"id":2535814204,"name":"Unichem Harbour View Pharmacy","address":"382 Te Atatu Road","city":"Auckland","latitude":-36.85461401749769,"longitude":174.65101953128283},{"id":2535814129,"name":"Unichem Hastings Pharmacy","address":"600 Heretaunga Street West","city":"Hastings","latitude":-39.63707467536771,"longitude":176.83669764033584},{"id":2535814287,"name":"Unichem Health Centre Pharmacy","address":"Tokoroa Hospital, Gate 3, Maraetai Road","city":"Tokoroa","latitude":-38.230334,"longitude":175.860655},{"id":2981284557,"name":"Unichem Health Centre Pharmacy Taupo ","address":"113 Heu Heu Street, Taupo 3330","city":"Taupo","latitude":-38.689249,"longitude":176.076141},{"id":2535814105,"name":"Unichem Helensville Pharmacy","address":"50 Commercial Road","city":"West Auckland","latitude":-36.677017399999976,"longitude":174.45037972698367},{"id":2535814206,"name":"Unichem Hickeys Pharmacy","address":"16 Moana Avenue","city":"Orewa","latitude":-36.5868969698006,"longitude":174.69403120185245},{"id":2535814075,"name":"Unichem High Street Pharmacy","address":"71 High Street","city":"Wellington","latitude":-41.210673,"longitude":174.9002448},{"id":2535814207,"name":"Unichem Highfield Mall Pharmacy","address":"145 Wai-iti Road","city":"Timaru","latitude":-44.390208684167895,"longitude":171.22574467472987},{"id":2535814130,"name":"Unichem Highland Park Pharmacy","address":"14 Highland Park Drive, Pakuranga, Auckland","city":"Auckland","latitude":-36.89908136478224,"longitude":174.9067184521149},{"id":2535814169,"name":"Unichem Hillpark Pharmacy","address":"77 Grande Vue Road","city":"Auckland","latitude":-37.01345591790017,"longitude":174.90049750226376},{"id":2594855762,"name":"Unichem Hobsonville Pharmacy","address":"124 Hobsonville Rd","city":"Auckland","latitude":-36.798394,"longitude":174.649146},{"id":2535814208,"name":"Unichem Hornby Pharmacy","address":"418 Main South Road","city":"Christchurch","latitude":-43.54290636895048,"longitude":172.52491416721193},{"id":2535814220,"name":"Unichem Huapai Pharmacy","address":"321 Main Road","city":"Kumeu","latitude":-36.77641427248123,"longitude":174.55722399272054},{"id":2535814209,"name":"Unichem Hunters Plaza Pharmacy","address":"Shop 11, Hunters Plaza, 217 Great South Road","city":"Auckland","latitude":-36.9709915,"longitude":174.86033080000004},{"id":3058029614,"name":"Unichem Huntly Pharmacy","address":"82 Main Street, Huntly 3700","city":"Huntly","latitude":-37.55814,"longitude":175.159034},{"id":2535814131,"name":"Unichem Hurst and Taylor Pharmacy","address":"512 Main Road","city":"Nelson","latitude":-41.31267079032871,"longitude":173.23422264104408},{"id":2535814210,"name":"Unichem Ilam Pharmacy","address":"209 Waimairi Road","city":"Christchurch","latitude":-43.51616872817956,"longitude":172.57175088528902},{"id":2535814195,"name":"Unichem Inglewood Pharmacy","address":"4 Matai Street","city":"Inglewood","latitude":-39.1563352,"longitude":174.2071402},{"id":2535814080,"name":"Unichem Island Bay Pharmacy","address":"141 The Parade","city":"Wellington","latitude":-41.33463113116254,"longitude":174.7735167547446},{"id":2535814211,"name":"Unichem Jeff Whittakers Pharmacy","address":"10 Napier Road","city":"Havelock North","latitude":-39.669551,"longitude":176.878317},{"id":2535814132,"name":"Unichem John Savory Pharmacy","address":"78 Vincent Street","city":"Auckland","latitude":-36.90257485623832,"longitude":174.92567906105558},{"id":2535814212,"name":"Unichem Johns Photo Pharmacy","address":"292 Cameron Road","city":"Tauranga","latitude":-37.689208,"longitude":176.165402},{"id":2535814213,"name":"Unichem Johnsonville Pharmacy","address":"59 Johnsonville Road","city":"Wellington","latitude":-41.223902151990075,"longitude":174.80802466878663},{"id":2535814214,"name":"Unichem Kamo Dispensary","address":"6C Three Mile Bush Road","city":"Whangarei","latitude":-35.683079908974236,"longitude":174.2993767745827},{"id":2535814215,"name":"Unichem Kamo Pharmacy","address":"521a Kamo Road","city":"Whangarei","latitude":-35.68326551192023,"longitude":174.30069997301632},{"id":2731015679,"name":"Unichem Karaka Pharmacy","address":"Shop 7A, 71 Hingaia Road","city":"Auckland","latitude":-37.073992,"longitude":174.92298},{"id":2535814216,"name":"Unichem Karori Mall Pharmacy","address":"The Mall, 250 Karori Road","city":"Wellington","latitude":-41.28444860784139,"longitude":174.7378997613821},{"id":2535814217,"name":"Unichem Katikati Pharmacy","address":"26 Main Road","city":"Katikati","latitude":-37.5528772,"longitude":175.9173594},{"id":2792037739,"name":"Unichem Kauri Healthcare Pharmacy","address":"619 Featherstone Street","city":"Palmerston North","latitude":-40.338233,"longitude":175.63179},{"id":2791324117,"name":"Unichem Kelston Medical Pharmacy","address":"8a Archibald Road","city":"Auckland","latitude":-36.905689,"longitude":174.663713},{"id":2979624385,"name":"Unichem Kerikeri Medical Centre Pharmacy ","address":"4 Homestead Road, Kerikeri 0230","city":"Kerikeri","latitude":-35.227386,"longitude":173.947608},{"id":2535814218,"name":"Unichem Kerikeri Pharmacy","address":"64 Kerikeri Road","city":"Kerikeri","latitude":-35.228245,"longitude":173.947952},{"id":2979624379,"name":"Unichem Kerimed Pharmacy ","address":"2 Ranui Avenue, Kerikeri 0230","city":"Kerikeri","latitude":-35.232538,"longitude":173.945133},{"id":2535814219,"name":"Unichem Kilbirnie Pharmacy","address":"37 Bay Road","city":"Wellington","latitude":-41.3182534,"longitude":174.7950193},{"id":2535814106,"name":"Unichem Knox Pharmacy","address":"402 George Street","city":"Dunedin","latitude":-45.8678011,"longitude":170.5073054},{"id":2535814315,"name":"Unichem Kolmar Pharmacy","address":"1\/133 Kolmar Road","city":"Auckland","latitude":-36.9705824,"longitude":174.8593831},{"id":2791324472,"name":"Unichem Kopata Pharmacy","address":"60 Bloomfield Terrace","city":"Wellington","latitude":-41.209044,"longitude":174.908748},{"id":2535814303,"name":"Unichem Leabank Pharmacy","address":"104 Weymouth Rd","city":"Auckland","latitude":-37.0275569,"longitude":174.8873291},{"id":2535814222,"name":"Unichem Leamington Pharmacy","address":"127 Shakespeare Street","city":"Cambridge","latitude":-37.90611292238677,"longitude":175.4749673907379},{"id":2535814223,"name":"Unichem Lee and Hart Pharmacy","address":"27 Queen Street","city":"Warkworth","latitude":-36.39769707230338,"longitude":174.66433288320457},{"id":2535814107,"name":"Unichem Levin Pharmacy","address":"209 Oxford Street","city":"Levin","latitude":-40.6225601,"longitude":175.28568300000006},{"id":3012622718,"name":"Unichem Lincoln Road Pharmacy ","address":"Unit D, Annex Building, 30 Lincoln Road, Hillmorton","city":"Christchurch ","latitude":-43.552783,"longitude":172.596466},{"id":3050908432,"name":"Unichem Long Bay Pharmacy","address":"55A Glenar Ridge Road, Long Bay, Auckland 0630","city":"Auckland","latitude":-36.68574,"longitude":174.73792},{"id":2535814280,"name":"Unichem Lunn Ave Pharmacy","address":"2\/110 Lunn Ave","city":"Auckland","latitude":-36.8880944,"longitude":174.8314711},{"id":2535814225,"name":"Unichem Lynnmall Pharmacy","address":"Shop W516 Lynnmall Shopping Centre, 3058 Great North Road","city":"Auckland","latitude":-36.9077127,"longitude":174.68520190000004},{"id":2535814226,"name":"Unichem Mackays Pharmacy","address":"289 Broadway","city":"Stratford","latitude":-39.3402615,"longitude":174.2847339},{"id":2535814073,"name":"Unichem Maidstone Pharmacy","address":"53 Main Street","city":"Wellington","latitude":-41.1245033,"longitude":175.0681028},{"id":2535814134,"name":"Unichem Mainstreet Pharmacy","address":"45-47 Picton Street","city":"Auckland","latitude":-36.89365963915178,"longitude":174.93093176422667},{"id":2535814227,"name":"Unichem MainStreet Taupo Pharmacy","address":"Corner Tongariro and Heuheu Streets","city":"Taupo","latitude":-38.68748568614286,"longitude":176.0696230648041},{"id":2535814228,"name":"Unichem Mairangi Bay Pharmacy","address":"433 Beach Road","city":"Auckland","latitude":-36.7383326,"longitude":174.7534972},{"id":2792037787,"name":"Unichem Mangere East Pharmacy","address":"7a\/359 Massey Road","city":"Manukau","latitude":-36.966535,"longitude":174.825112},{"id":2535814086,"name":"Unichem Mangere Medical Pharmacy","address":"215 Massey Road","city":"Auckland","latitude":-36.9567364,"longitude":174.8338618},{"id":2535814306,"name":"Unichem Mangere Pharmacy","address":"12 Waddon Place","city":"Auckland","latitude":-36.9711612,"longitude":174.7978835},{"id":2791324466,"name":"Unichem Manly Pharmacy","address":"53B Rawhiti Road","city":"Whangaparaoa","latitude":-36.631416,"longitude":174.763393},{"id":2535814229,"name":"Unichem Manukau Pharmacy","address":"Countdown Building, 652 Great South Road","city":"Auckland","latitude":-36.98724,"longitude":174.88359030000004},{"id":2535814149,"name":"Unichem Manukau Rd Pharmacy","address":"149 Manukau Road","city":"Auckland","latitude":-37.20764902795621,"longitude":174.9091924079346},{"id":2535814230,"name":"Unichem Manurewa Pharmacy","address":"198-200 Great South Road","city":"Auckland","latitude":-37.02192505404893,"longitude":174.89698979131185},{"id":2535814170,"name":"Unichem Marina Pharmacy","address":"1 Ara Tai Street","city":"Auckland","latitude":-36.8812879,"longitude":174.89970010000002},{"id":2535814133,"name":"Unichem Marsden Village Pharmacy","address":"Marsden Village, 159 Karori Road","city":"Wellington","latitude":-41.28260269140362,"longitude":174.74537793089087},{"id":2535814231,"name":"Unichem Marshalls Medical Pharmacy","address":"220 Bank Street","city":"Te Awamutu","latitude":-38.0103953,"longitude":175.321871},{"id":2535814136,"name":"Unichem Marshalls Pharmacy","address":"156 Teasdale Street","city":"Te Awamutu","latitude":-38.0112619,"longitude":175.3224024},{"id":2792037870,"name":"Unichem Martinborough Pharmacy","address":"5 Oxford Street","city":"Martinborough","latitude":-41.21947,"longitude":175.460701},{"id":2535814137,"name":"Unichem Massey Pharmacy","address":"396 Don Buck Road","city":"Auckland","latitude":-36.83471620448974,"longitude":174.60262867471693},{"id":2535814298,"name":"Unichem Matamata Pharmacy","address":"56 Rawhiti Avenue","city":"Matamata","latitude":-37.809169,"longitude":175.7784745},{"id":2535814138,"name":"Unichem Meadowlands Pharmacy","address":"Meadowlands Shopping Centre 112 Whitford Road","city":"Auckland","latitude":-36.913644681560974,"longitude":174.92837056640928},{"id":2535814139,"name":"Unichem Medi-Centre Pharmacy","address":"131 Lincoln Road","city":"Auckland","latitude":-36.86468072983385,"longitude":174.6301146745716},{"id":2535814154,"name":"Unichem Medical Corner Pharmacy","address":"237a High Street","city":"Christchurch","latitude":-43.304131,"longitude":172.5919847},{"id":2906475605,"name":"Unichem Metro Pharmacy Bethlehem","address":"Shop A8, Bethlehem Town Centre, 19 Bethlehem Road ","city":"Tauranga","latitude":-37.694554,"longitude":176.109079},{"id":2535814233,"name":"Unichem Milford Pharmacy","address":"174A Kitchener Road","city":"Auckland","latitude":-36.77284,"longitude":174.765265},{"id":2535814171,"name":"Unichem Mills Pharmacy","address":"38 Kelvin Street","city":"Invercargill","latitude":-46.41084884156528,"longitude":168.35044445784433},{"id":3059305495,"name":"Unichem Miramar Pharmacy","address":"58 Miramar Avenue, Wellington 6022","city":"Wellington","latitude":-41.3160077,"longitude":174.8150424},{"id":2535814078,"name":"Unichem Molesworth Pharmacy","address":"100 Molesworth Street","city":"Wellington","latitude":-41.2758256,"longitude":174.7782218},{"id":2535814077,"name":"Unichem Moorhouse Pharmacy","address":"3 Pilgrim Place","city":"Christchurch","latitude":-43.5409237,"longitude":172.6397687},{"id":2535814235,"name":"Unichem Mornington Pharmacy","address":"170 Eglinton Road","city":"Dunedin","latitude":-45.8822846,"longitude":170.4826778},{"id":2535814236,"name":"Unichem Morrinsville Pharmacy","address":"72 Studholme Street","city":"Morrinsville","latitude":-37.65755769678732,"longitude":175.52774566256562},{"id":2535814142,"name":"Unichem Motueka Pharmacy","address":"162 High Street","city":"Motueka","latitude":-41.1112562,"longitude":173.0108218},{"id":2535814143,"name":"Unichem Mount Dispensary","address":"42 Girven Road","city":"Mt Maunganui","latitude":-37.67446715181448,"longitude":176.22776007682762},{"id":2792037763,"name":"Unichem Mt Smart Pharmacy","address":"233 Mount Smart Road","city":"Auckland","latitude":-36.914937,"longitude":174.801198},{"id":2535814087,"name":"Unichem Munroe St. Pharmacy","address":"32 Munroe Street","city":"Napier","latitude":-39.494227840402125,"longitude":176.91489800555723},{"id":2535814237,"name":"Unichem Neills Pharmacy","address":"Countdown Shopping Centre, 193 Mt Wellington Highway","city":"Auckland","latitude":-36.909035476760096,"longitude":174.83764787531027},{"id":2535814088,"name":"Unichem New Lynn Pharmacy","address":"19 Delta Avenue","city":"Auckland","latitude":-36.9047162874723,"longitude":174.68452807651386},{"id":2535814238,"name":"Unichem Newtown Mall Pharmacy","address":"100 Riddiford Street","city":"Wellington","latitude":-41.314460605274846,"longitude":174.7802253629559},{"id":2535814239,"name":"Unichem North City Pharmacy","address":"Shop 125, North City Shopping Centre, 2 Titahi Bay Road","city":"Wellington","latitude":-41.1374349,"longitude":174.83993859999998},{"id":2535814172,"name":"Unichem Northcote Pharmacy","address":"1 Pearn Place","city":"Auckland","latitude":-36.8015949,"longitude":174.74560380000003},{"id":2535814144,"name":"Unichem Northend Pharmacy","address":"411 Thames Highway","city":"Oamaru","latitude":-45.0808043,"longitude":170.9824567},{"id":2535814240,"name":"Unichem Olsens Pharmacy","address":"1 Guinness Street, Greymouth ","city":"Greymouth","latitude":-42.449648,"longitude":171.210887},{"id":2535814241,"name":"Unichem Onehunga Centre Pharmacy","address":"73 Church Street","city":"Auckland","latitude":-36.9233319,"longitude":174.7836727},{"id":2535814242,"name":"Unichem Onehunga Mainstreet Pharmacy","address":"227 Onehunga Mall","city":"Auckland","latitude":-36.92169378654963,"longitude":174.78534372117213},{"id":2535814243,"name":"Unichem Onerahi Pharmacy","address":"116 Onerahi Road","city":"Whangarei","latitude":-35.755039,"longitude":174.3681053},{"id":2535814244,"name":"Unichem Orrs Pharmacy Dargaville","address":"Corner Hokianga Road and Parenga Street","city":"Dargaville","latitude":-35.94202966262398,"longitude":173.8699533423279},{"id":2535814281,"name":"Unichem Orrs Pharmacy Kaikohe","address":"34 Broadway Street","city":"Kerikeri","latitude":-35.405116,"longitude":173.80463},{"id":2535814320,"name":"Unichem Orrs Pharmacy Maungaturoto","address":"144 Hurndall Street","city":"Maungaturoto","latitude":-36.1100078,"longitude":174.3541323},{"id":2535814245,"name":"Unichem Orrs Pharmacy Ruakaka","address":"Shop 16, Town Centre, Corner Marsden Point and Peter Snell Roads","city":"Ruakaka","latitude":-35.87488778863558,"longitude":174.45552281108394},{"id":2535814317,"name":"Unichem Orrs Pharmacy Tui","address":"7 Tui Crescent","city":"Whangarei","latitude":-35.739766,"longitude":174.2829154},{"id":2535814246,"name":"Unichem Orrs Pharmacy Whangarei","address":"Cameron Street Mall, 48 Cameron Street","city":"Whangarei","latitude":-35.72537675822156,"longitude":174.3208757337295},{"id":2594319472,"name":"Unichem Ostend Pharmacy","address":"9 Belgium St","city":"Auckland","latitude":-36.796125,"longitude":175.044914},{"id":2535814145,"name":"Unichem Otahuhu Health Centre Pharmacy","address":"3\/507 Great South Road","city":"Auckland","latitude":-36.94672364867018,"longitude":174.84517412094885},{"id":2535814173,"name":"Unichem Otahuhu Mainstreet Pharmacy","address":"461 Great South Road","city":"Auckland","latitude":-36.9454215,"longitude":174.8445344},{"id":2535814312,"name":"Unichem Otara Pharmacy","address":"120 East Tamaki Road","city":"Auckland","latitude":-36.9619783,"longitude":174.8732386},{"id":2535814247,"name":"Unichem Otorohanga Pharmacy","address":"55 Maniapoto Street","city":"Otorohanga","latitude":-38.1867455,"longitude":175.2113112},{"id":2535814295,"name":"Unichem Otumoetai Pharmacy","address":"506 Otumoetai Road","city":"Tauranga","latitude":-37.6666236,"longitude":176.1394904},{"id":2535814248,"name":"Unichem Owles Pharmacy","address":"45-47 Everest Avenue","city":"Lower Hutt","latitude":-41.1986618,"longitude":174.9487323},{"id":2535814299,"name":"Unichem Paeroa Pharmacy","address":"122 Normanby Road","city":"Paeroa","latitude":-37.38127,"longitude":175.67224},{"id":2535814110,"name":"Unichem Pakuranga Pharmacy","address":"Pakuranga Medical Centre, 11-13 Cortina Place","city":"Auckland","latitude":-36.9126158,"longitude":174.8736784},{"id":2535814146,"name":"Unichem Panmure Pharmacy","address":"74-76 Queens Road","city":"Auckland","latitude":-36.89950207770207,"longitude":174.85425837543016},{"id":2535814174,"name":"Unichem Papakura Healthcare Pharmacy","address":"287 Great South Road","city":"Auckland","latitude":-37.0651675,"longitude":174.9437217},{"id":2982022164,"name":"Unichem Papamoa Pharmacy ","address":"26 Gravatt Road, Papamoa","city":"Tauranga","latitude":-37.701173,"longitude":176.282261},{"id":2792037756,"name":"Unichem Papatoetoe Pharmacy","address":"63 St George Street","city":"Papatoetoe","latitude":-36.979745,"longitude":174.853741},{"id":3043913742,"name":"Unichem Parklands Medical Pharmacy","address":"Unit 1, 345 Mairehau Road, Parklands, Christchurch 8083","city":"Christchurch","latitude":-43.47947,"longitude":172.69214},{"id":2535814326,"name":"Unichem Parklands Pharmacy","address":"60 Queens Park Drive","city":"Christchurch","latitude":-43.4810705,"longitude":172.7051794},{"id":2594855760,"name":"Unichem Parkside Pharmacy","address":"Christchurch Public Hospital Main Entrance, 2 Riccarton Ave","city":"Christchurch","latitude":-43.533882,"longitude":172.625474},{"id":2535814249,"name":"Unichem Peninsula Pharmacy","address":"556 Te Atatu Road","city":"Auckland","latitude":-36.8419144,"longitude":174.6515498},{"id":2535814192,"name":"Unichem Petone Pharmacy","address":"240-242 Jackson Street","city":"Lower Hutt","latitude":-41.22542505341301,"longitude":174.87852755499785},{"id":2992041786,"name":"Unichem Plimmer Steps Pharmacy","address":"Shop GA, 354 Lambton Quay","city":"Wellington","latitude":-41.2861907,"longitude":174.7758954},{"id":2535814147,"name":"Unichem Point Chevalier Pharmacy","address":"1213 Great North Road","city":"Auckland","latitude":-36.870415746789696,"longitude":174.71043472407962},{"id":2535814272,"name":"Unichem Ponsonby Pharmacy","address":"1\/283 Ponsonby Road","city":"Auckland","latitude":-36.848202,"longitude":174.744316},{"id":2984420028,"name":"Unichem Prestons Pharmacy","address":"3\/420 Marshland Road, Marshland, Christchurch, 8083","city":"Christuchurch","latitude":-43.474034,"longitude":172.666788},{"id":2535814252,"name":"Unichem Pukekohe Pharmacy","address":"16 West Street","city":"Pukekohe","latitude":-37.201275031080044,"longitude":174.9004753150889},{"id":2535814253,"name":"Unichem Putaruru Pharmacy","address":"3 Duke Street","city":"Putaruru","latitude":-38.051906960869424,"longitude":175.77957271719663},{"id":2535814103,"name":"Unichem Queen Street Pharmacy","address":"280 Queen Street","city":"Auckland","latitude":-36.85038424510999,"longitude":174.7649024690436},{"id":2535814254,"name":"Unichem Quins Gore Pharmacy","address":"104 Main Street","city":"Gore","latitude":-46.10129956864277,"longitude":168.94372437493553},{"id":2535814150,"name":"Unichem Rangatira Pharmacy","address":"340 Rangatira Road","city":"Auckland","latitude":-36.792711,"longitude":174.6877104},{"id":2535814301,"name":"Unichem Ratanui Pharmacy","address":"77 Lincoln Road","city":"Auckland","latitude":-36.8689656,"longitude":174.6286461},{"id":2999857199,"name":"Unichem Red Beach Pharmacy","address":"Shop 8 Red Beach Shopping Centre, Red Beach Road","city":"Auckland","latitude":-36.60308,"longitude":174.69528},{"id":2535814255,"name":"Unichem Redwoodtown Pharmacy","address":"70 Cleghorn Street, ","city":"Redwoodtown","latitude":-41.5300482,"longitude":173.9558928},{"id":2535814256,"name":"Unichem Remarkables Pharmacy","address":"Remarkables Park Town Centre, 53\/12 Hawthorne Drive","city":"Queenstown","latitude":-45.027488,"longitude":168.743605},{"id":2535814089,"name":"Unichem Riccarton Clinic Pharmacy","address":"4 Yaldhurst Road","city":"Christchurch","latitude":-43.5315249,"longitude":172.5718254},{"id":2535814175,"name":"Unichem Richardson Road Pharmacy","address":"445 Richardson Road","city":"Auckland","latitude":-36.9132158,"longitude":174.7279796},{"id":2535814257,"name":"Unichem Richmond Mall Pharmacy","address":"Shop 1, Richmond Mall, 216 Queen Street","city":"Nelson","latitude":-41.34001691925723,"longitude":173.1858285079345},{"id":3022052138,"name":"Unichem Riverton Pharmacy","address":"168 Palmerston Street, Riverton","city":"Invercargill","latitude":-46.351791,"longitude":168.013702},{"id":2535814291,"name":"Unichem Rolleston Central Pharmacy","address":"Shop 3 East, Rolleston Square East, 9 Masefield Drive","city":"Christchurch","latitude":-43.594234,"longitude":172.387772},{"id":2535814322,"name":"Unichem Rolleston Village Pharmacy","address":"92 Rolleston Drive","city":"Christchurch","latitude":-43.5967006,"longitude":172.3824743},{"id":2535814260,"name":"Unichem Rosedale Pharmacy","address":"372 Rosedale Road","city":"Auckland","latitude":-36.7428265,"longitude":174.695961},{"id":2535814261,"name":"Unichem Roses Pharmacy","address":"Corner Albert Street and Broadway Avenue","city":"Palmerston North","latitude":-40.34925988090841,"longitude":175.6231531718522},{"id":2535814151,"name":"Unichem Roskill Village Pharmacy","address":"1490 Dominion Road Extension","city":"Auckland","latitude":-36.920904077335244,"longitude":174.73613327605744},{"id":2535814176,"name":"Unichem Roslyn Pharmacy","address":"Roslyn Village, 287A Highgate","city":"Dunedin","latitude":-45.867375607968796,"longitude":170.4895906531276},{"id":2535814095,"name":"Unichem Rototuna Pharmacy","address":"Rototuna Retail Centre, Corner Thomas and Horsham Downs Roads","city":"Hamilton","latitude":-37.72922990940649,"longitude":175.2747546341766},{"id":2535814262,"name":"Unichem Royal Heights Pharmacy","address":"138 Royal Road","city":"Auckland","latitude":-36.8328634,"longitude":174.6230708},{"id":2535814263,"name":"Unichem Royal Oak Pharmacy","address":"Royal Oak Mall, 691 Manukau Road","city":"Auckland","latitude":-36.9104783,"longitude":174.77481910000006},{"id":2967392770,"name":"Unichem Ruapehu Pharmacy","address":"21 Goldfinch Street","city":"Ohakune","latitude":-39.417196,"longitude":175.399316},{"id":2535814085,"name":"Unichem Russell Street Pharmacy","address":"108 Russell Street","city":"Hastings","latitude":-39.6425836676934,"longitude":176.84290304418028},{"id":2791324118,"name":"Unichem Sandringham Pharmacy","address":"2 Kitchener Road","city":"Auckland","latitude":-36.89217,"longitude":174.736073},{"id":3058127965,"name":"Unichem Shotover Pharmacy","address":"Cnr Jones Ave & Howards Drive, Lower Shotver, Queenstown, Otago 9304","city":"Queenstown","latitude":-45.002004,"longitude":168.782596},{"id":2535814316,"name":"Unichem Silverdale Clinic Pharmacy","address":"2\/7 Polarity Rise","city":"Auckland","latitude":-36.6136183,"longitude":174.6834051},{"id":2535814282,"name":"Unichem Silverdale Pharmacy","address":"25\/61 Silverdale St","city":"Auckland","latitude":-36.6155264,"longitude":174.6810253},{"id":2535814153,"name":"Unichem Simons Pharmacy","address":"189 Main Road","city":"Wellington","latitude":-41.169801344949725,"longitude":174.8245625814758},{"id":3055494218,"name":"Unichem Snells Beach Pharmacy","address":"Shop 1, 347 Muhurangi East Road, Snells Beach, Auckland 0920","city":"Auckland","latitude":-36.424432,"longitude":174.72757},{"id":3001143150,"name":"Unichem South City Pharmacy","address":"249 Elles Road","city":"Invercargill","latitude":-46.4274219,"longitude":168.3612536},{"id":2535814265,"name":"Unichem Southend Pharmacy","address":"266 Queen Street","city":"Masterton","latitude":-40.9519464,"longitude":175.6578926},{"id":2593717615,"name":"Unichem Spitfire Square Pharmacy","address":"Shop 14, Spitfire Square, 544 Memorial Avenue","city":"Christchurch","latitude":-43.489858,"longitude":172.547713},{"id":2535814155,"name":"Unichem Springlands Pharmacy","address":"131 Middle Renwick Road","city":"Blenheim","latitude":-41.50953212881717,"longitude":173.93531842053187},{"id":2535814286,"name":"Unichem St Heliers Medical Pharmacy","address":"10c Turua Street","city":"Auckland","latitude":-36.8503737,"longitude":174.8586296},{"id":2535814273,"name":"Unichem Stafford Pharmacy","address":"278 Stafford Street","city":"Timaru","latitude":-44.394387160827854,"longitude":171.25123953057596},{"id":2594855791,"name":"Unichem Stanmore Bay","address":"Shop B2, Cnr Whangaparaoa and Beverley Rd","city":"Stanmore Bay","latitude":-36.62843,"longitude":174.731133},{"id":2535814266,"name":"Unichem Stantons Pharmacy","address":"346 Halswell Road","city":"Christchurch","latitude":-43.580230728696094,"longitude":172.56695860859827},{"id":2535814267,"name":"Unichem Stephensons Pharmacy","address":"64 Albert Street","city":"Whitianga","latitude":-36.8345014,"longitude":175.7046279},{"id":2535814285,"name":"Unichem Stoddard Road Pharmacy","address":"301a Roskill Centre, 22 Stoddard Road","city":"Auckland","latitude":-36.907232534262924,"longitude":174.73340694100034},{"id":2535814100,"name":"Unichem Stokes Valley Pharmacy","address":"190 Stokes Valley Road, Stokes Valley, Lower Hutt, Wellington","city":"Wellington","latitude":-41.1738596,"longitude":174.9819066},{"id":2535814081,"name":"Unichem Stortford Lodge Pharmacy","address":"1107 Heretaunga Street West","city":"Hastings","latitude":-39.6310245,"longitude":176.8317734},{"id":2535814156,"name":"Unichem Summerfields Pharmacy","address":"Unit 2 1091 Frankton Road","city":"Queenstown","latitude":-45.01611887760824,"longitude":168.73125992981727},{"id":2594855678,"name":"Unichem Sunnybrae Pharmacy","address":"45 Sunnybrae Rd","city":"Auckland","latitude":-36.789396,"longitude":174.745138},{"id":2535814177,"name":"Unichem Sunnynook Pharmacy","address":" Sunnynook Shopping Centre, 106 Sunnynook Road","city":"Auckland","latitude":-36.759531,"longitude":174.739856},{"id":2594319462,"name":"Unichem Surrey Pharmacy","address":"26 Surrey Crescent, Grey Lynn","city":"Auckland","latitude":-36.86368,"longitude":174.736812},{"id":2535814157,"name":"Unichem Taieri Pharmacy","address":"2 Factory Road","city":"Mosgiel","latitude":-45.87388826040119,"longitude":170.34807623661368},{"id":2535814158,"name":"Unichem Takanini Pharmacy","address":"3\/226 Great South Road","city":"Auckland","latitude":-37.0475835,"longitude":174.9272155},{"id":2535814297,"name":"Unichem Takanini Village Pharmacy","address":"Unit 2B, Building 2, Takanini Village, 30 Walters Rd","city":"Auckland","latitude":-37.0484319,"longitude":174.9331862},{"id":2535814108,"name":"Unichem Takapuna Pharmacy","address":"67 Hurstmere Road","city":"Auckland","latitude":-36.78676595427338,"longitude":174.77304243439335},{"id":2535814268,"name":"Unichem Taradale Pharmacy","address":"288 Gloucester Street","city":"Napier","latitude":-39.53645981427978,"longitude":176.8484518846558},{"id":2535814191,"name":"Unichem Taumarunui Pharmacy","address":"93 Hakiaha Street","city":"Taumarunui","latitude":-38.8831826,"longitude":175.2635862},{"id":3029380511,"name":"Unichem Taupo Medical Centre Pharmacy","address":"117 Heuheu Street","city":"Taupo","latitude":-38.68933,"longitude":176.07655},{"id":2535814271,"name":"Unichem Te Kuiti Pharmacy","address":"105 Rora Street","city":"Te Kuiti","latitude":-38.33384058693572,"longitude":175.1647921279441},{"id":3061628274,"name":"Unichem Te Nikau Pharmacy","address":"Te Nikau Grey Hospital, 146 High Street, Greymouth 7805","city":"Greymouth","latitude":-42.46257,"longitude":171.19632},{"id":2535814096,"name":"Unichem Te Rapa Pharmacy","address":"26 Bryant Road","city":"Hamilton","latitude":-37.7576428,"longitude":175.2468989},{"id":3059081858,"name":"Unichem Templeton Pharmacy","address":"5 Kirk Road, Templeton, Christchurch 8042","city":"Christchurch","latitude":-43.55337,"longitude":172.47325},{"id":2535814083,"name":"Unichem Terrace End Pharmacy","address":"325 Broadway Avenue","city":"Palmerston North","latitude":-40.34787409303827,"longitude":175.62626005396726},{"id":2535814205,"name":"Unichem Thames Pharmacy","address":"546 Pollen Street","city":"Thames","latitude":-37.1387701,"longitude":175.5423132},{"id":3009674648,"name":"Unichem The Mall Pharmacy","address":"Shop 27, Rotorua Central Mall, Amohau Street","city":"Rotorua","latitude":-38.13855419,"longitude":176.2513329},{"id":2535814093,"name":"Unichem The Palms Pharmacy","address":"445 Ferguson Street","city":"Palmerston North","latitude":-40.356470843048434,"longitude":175.61948289325414},{"id":2535814071,"name":"Unichem Ti Rakau Drive Pharmacy","address":"316 Ti Rakau Drive","city":"Auckland","latitude":-36.926594876695084,"longitude":174.89776154047547},{"id":2535814274,"name":"Unichem Tokoroa Pharmacy","address":"221 Leith Place","city":"Tokoroa","latitude":-38.218372,"longitude":175.872712},{"id":2535814275,"name":"Unichem Torbay Pharmacy","address":"1040 Beach Road","city":"Auckland","latitude":-36.6955408,"longitude":174.7515659},{"id":3059070644,"name":"Unichem Total Health Pharmacy ","address":"Shop 3, 252 The Strand, Whakatane","city":"Whakatane","latitude":-37.95225,"longitude":176.99272},{"id":2535814094,"name":"Unichem Tower Junction Pharmacy","address":"Unit 7, Tower Junction, Whiteleigh Avenue","city":"Christchurch","latitude":-43.54070956928623,"longitude":172.6053804816147},{"id":2535814159,"name":"Unichem Tuakau Pharmacy","address":"51-53 George Street","city":"Tuakau","latitude":-37.260315,"longitude":174.9463425},{"id":2594319453,"name":"Unichem Turangi Pharmacy","address":"19 Ohuanga Rd","city":"Turangi","latitude":-38.990093,"longitude":175.808923},{"id":2535814119,"name":"Unichem UFS Napier Pharmacy","address":"265 Emerson Street","city":"Hawkes Bay","latitude":-39.4912978,"longitude":176.9144107},{"id":2535814160,"name":"Unichem UFS Pharmacy","address":"76 Tay Street","city":"Invercargill","latitude":-46.4128032,"longitude":168.3512989},{"id":2535814290,"name":"Unichem University Pharmacy","address":"Easterfield Bldg, Victoria University of Wellington, 21 Kelburn Parade","city":"Wellington","latitude":-41.288925,"longitude":174.768095},{"id":2535814069,"name":"Unichem Upper Hutt Health Pharmacy","address":"6 Sinclair Street, Upper Hutt","city":"Wellington","latitude":-41.12184908519998,"longitude":175.07302989499237},{"id":2535814276,"name":"Unichem Upper Hutt Pharmacy","address":"723 Fergusson Drive","city":"Wellington","latitude":-41.12552854209398,"longitude":175.0582079190558},{"id":2791324119,"name":"Unichem Victoria Pharmacy","address":"49 Victoria Street West","city":"Auckland","latitude":-36.84842,"longitude":174.763793},{"id":2535814277,"name":"Unichem Waiheke Pharmacy","address":"120 Ocean View Road","city":"Waiheke Island","latitude":-36.782858,"longitude":175.009459},{"id":2987604982,"name":"Unichem Waikanae Beach Pharmacy","address":"41-43 Te Moana Road, Waikanae Beach, Kapiti Coast 5036","city":"Wellington","latitude":-40.865633,"longitude":175.024695},{"id":2535814068,"name":"Unichem Waikanae Health Pharmacy","address":"Marae Lane, Waikanae, Kapiti Coast, 5036","city":"Kapiti Coast","latitude":-40.875985118706616,"longitude":175.0636242933083},{"id":2535814161,"name":"Unichem Waikiwi Pharmacy","address":"280 North Road","city":"Invercargill","latitude":-46.37719804263977,"longitude":168.34706406561725},{"id":2535814311,"name":"Unichem Waiora Pharmacy","address":"6-8 Pioneer Street","city":"Auckland","latitude":-36.8826944,"longitude":174.6326178},{"id":2535814278,"name":"Unichem Waipapa Pharmacy","address":"5 Klinac Lane","city":"Waipapa","latitude":-35.2107813,"longitude":173.9181135},{"id":2535814162,"name":"Unichem Waipukurau Pharmacy","address":"125 Ruataniwha Street","city":"Waipukurau","latitude":-39.995423875389605,"longitude":176.55510074739027},{"id":2535814102,"name":"Unichem Waiuku Medical Pharmacy","address":"30B Constable Road","city":"Auckland","latitude":-37.2521607,"longitude":174.7251647},{"id":2535814101,"name":"Unichem Waiuku Pharmacy","address":"40 Queen Street","city":"Auckland","latitude":-37.24923765430846,"longitude":174.73063218363336},{"id":2535814163,"name":"Unichem Walls and Roche Pharmacy","address":"792 Manukau Road","city":"Auckland","latitude":-36.9116486,"longitude":174.7761714},{"id":2791324120,"name":"Unichem Warkworth Pharmacy","address":"2\/23 Percy Street","city":"Warkworth","latitude":-36.399357,"longitude":174.666103},{"id":3063052008,"name":"Unichem Weiti Pharmacy","address":"2\/3 Brian Smith Drive","city":"Auckland","latitude":-36.62036,"longitude":174.672},{"id":2535814079,"name":"Unichem Wellington Central Pharmacy","address":"204 Lambton Quay","city":"Wellington","latitude":-41.2825250487587,"longitude":174.77564348626333},{"id":2792037869,"name":"Unichem West Melton Pharmacy","address":"Weedons Ross Road","city":"Canterbury","latitude":-43.522196,"longitude":172.367864},{"id":2535814109,"name":"Unichem Westcity Pharmacy","address":"Shop 222, Level 2, Westfield WestCity, 7 Catherine Street","city":"Auckland","latitude":-36.8804378,"longitude":174.6325657},{"id":2535814164,"name":"Unichem Westown Pharmacy","address":"55 Tukapa Street","city":"New Plymouth","latitude":-39.071444254994645,"longitude":174.06213274706113},{"id":2535814264,"name":"Unichem Whangamata Pharmacy","address":"503 Port Road","city":"Whangamata","latitude":-37.20600600909253,"longitude":175.87180126742624},{"id":2535814090,"name":"Unichem Whanganui Pharmacy","address":"36 Fitzherbert Avenue","city":"Whanganui","latitude":-39.9317726,"longitude":175.0218188},{"id":3064828795,"name":"Unichem Whangarei Pharmacy","address":"2\/32 Reyburn Street","city":"Whangarei","latitude":-35.727193,"longitude":174.32655},{"id":2594855693,"name":"Unichem Wigram Pharmacy","address":"102 The Runway, The Landing ","city":"Christchurch","latitude":-43.55271,"longitude":172.557331},{"id":2535814250,"name":"Unichem Willis St Pharmacy","address":"58 Willis Street","city":"Wellington","latitude":-41.287744,"longitude":174.775387},{"id":2535814293,"name":"Unichem Wyndham Street Pharmacy","address":"33 Wyndham Street","city":"Auckland","latitude":-36.8466811,"longitude":174.7638419},{"id":2975025454,"name":"Unichem Wynyard Pharmacy","address":"4B 58 Gaunt Street","city":"Auckland CBD","latitude":-36.844566,"longitude":174.754824}]
